B02DC3AC

#RANGE=1
d2/51f2f9a445.pal,643,F5E010B1,6

#RANGE=4
16/b388d8fde1.pal,767,A20EC7DC,6

#RANGE=5
cc/6f5b73bdbb.pal,2740,5B605D8A,6

#RANGE=6
ed/c1079b3aa9.pal,5016,B5B6E3FD,6

#RANGE=7
67/9d5be79634.pal,40917,010DC0B5,6

#RANGE=8
64/18bf9adcb4.pal,70714,C04CA6CD,6

#RANGE=9
4b/3099a83aab.pal,154927,AEA4EE04,6
4b/515ed6acf1.pal,129336,DFFD3DED,6
62/994b30c77c.pal,131416,DCF19FD2,6
64/6a5e1ed545.pal,146556,99824D88,6
d2/e13027eb76.pal,107134,E442C985,6

#RANGE=10
16/82a2cf9843.pal,161637,E237FBF8,6
62/0ac546fc4a.pal,69062,957C12D7,6
62/2bf17574be.pal,121749,AF658972,6
67/bc7e08fbe5.pal,168212,065231E1,6
cc/c0143eaa2a.pal,119639,68A5CCDF,6
cc/d7fa4bdf22.pal,159151,EF7EF3D2,6
ed/2bc287d271.pal,161636,54FE6CD5,6
ed/654ef14404.pal,115205,C5A8E15D,6

#RANGE=11
16/1efb294591.pal,129107,9BDF7CA9,6
16/2dab54c3f6.pal,184899,E34DC7C5,6
16/6265a4169a.pal,155912,C484B48C,6
16/6b3962ece6.pal,162981,53EFAF59,6
16/7a6bc2c9e7.pal,175684,799AC815,6
16/8f79f06a54.pal,150182,B42875CD,6
16/99320f2cb1.pal,170657,B43208D4,6
16/b56a383bee.pal,117923,DA35E1F2,6
16/c86bd34fed.pal,120352,7BF18931,6
16/dc52606e37.pal,169780,7ADFEC9D,6
4b/0c5a3f48dc.pal,167879,CD096187,6
4b/22c8587437.pal,186385,C7FB7F36,6
4b/4005e34575.pal,167992,B45082A6,6
4b/47da18f397.pal,166336,239FA029,6
4b/5c38c91487.pal,122497,69421DF7,6
4b/6ba11d88d7.pal,121541,61D6C2FF,6
4b/6d27fa379a.pal,14283,59ADAA66,6
62/21d020f095.pal,200541,6C74516D,6
62/388735cbec.pal,178327,0DC57E7D,6
62/5065096280.pal,180558,05689B0D,6
62/6febae12a1.pal,139796,EF29B9D0,6
62/9be76c06ed.pal,113700,AD9C6715,6
62/ce1495b56a.pal,187708,668CC389,6
62/f9a66357b5.pal,173205,75387840,6
64/7d5265b030.pal,14827,0C1DFC27,6
64/80b36ceaf9.pal,130369,5DFF3E94,6
64/8858773f1d.pal,121127,C8D91D8F,6
64/8ff5854108.pal,149202,57ABF611,6
64/997ea3a5f3.pal,124802,9100A5D7,6
64/9f29b14006.pal,161540,A00FCB19,6
64/c7dcde0c85.pal,166835,D3279709,6
64/db19fb9a9b.pal,153492,4532A0C9,6
64/fb214c1215.pal,158571,EA30829A,6
67/074f102200.pal,188796,E8ACCA60,6
67/3dd0472ff6.pal,177280,FB9D5073,6
67/52dad51c3a.pal,112172,0165D4A3,6
67/60b450ffff.pal,140126,BEC7A30E,6
67/79a76a6150.pal,149439,B163A2D4,6
67/a23d26c945.pal,152397,05FC4ADE,6
67/a54118e130.pal,142523,E8AE197A,6
67/aa355fc0c4.pal,113228,2DF690EB,6
67/be093dfe55.pal,164689,8E39A987,6
cc/317dbef1b4.pal,166297,B345DFEB,6
cc/3ff6effcc0.pal,145630,1EB56FB8,6
cc/5eaf93f4a9.pal,185935,5E96FD49,6
cc/7af9142e00.pal,117133,DF50AA1A,6
cc/a8954b6d41.pal,155125,A5C0EFED,6
cc/acb385f0e1.pal,181309,071FFB89,6
cc/b15c1998ac.pal,161596,0613BA07,6
cc/d9c6854500.pal,13887,83B72BE0,6
d2/3f66332f69.pal,160764,7B1809D5,6
d2/490a06901a.pal,123453,8E7D4FC7,6
d2/4d3b432d6a.pal,179204,AD970F9E,6
d2/69e30aad2a.pal,179410,92E32270,6
d2/72a6156095.pal,165523,8CB9D6ED,6
d2/7c0a4b127a.pal,139235,A3BB1DCE,6
d2/7e6af66590.pal,147743,926A1D1D,6
d2/b4a23e3bd6.pal,163840,58565765,6
d2/bb392d03d6.pal,160369,C55D0F55,6
ed/0bc5ceb0fb.pal,116875,8847DC2C,6
ed/42ccc1ddd4.pal,172341,BD0A3152,6
ed/49c7eec805.pal,163546,C8647140,6
ed/8716b0e8ff.pal,198338,6180F909,6
ed/b233b8adc1.pal,194696,CF973E5B,6
ed/cddebcd29b.pal,173040,760E363E,6
ed/e8538a63b9.pal,176322,3B60B09C,6

#RANGE=12
16/8a6b4c2a4e.pal,173963,53C8C3F1,6
16/a1f1871cd7.pal,179489,A698E28B,6
16/bd19e61070.pal,156169,59483DFD,6
16/c417659eff.pal,176420,3D747FDD,6
16/df9e4b3092.pal,111542,A7CDA129,6
16/e587f1d14f.pal,212953,5F3A5ED5,6
22/96847474a9.pal,176947,3AE982F8,6
22/a0deaf696d.pal,143271,F1EA8103,6
22/a729b5491a.pal,175446,5FAD678B,6
22/b3dafc8fda.pal,117759,0810B00B,6
22/b88ac28ad0.pal,114219,F1A7B7E7,6
22/e22b7a3f51.pal,186014,5AF00E7A,6
22/fd060f5b23.pal,183858,B2194B2C,6
4b/31190272e0.pal,124636,F20ADAEB,6
4b/37ff03d933.pal,178562,9DCCDCE8,6
4b/3eef9ba12a.pal,155845,93F7620D,6
4b/53c744cf15.pal,179687,41BCADBC,6
4b/55fe52e528.pal,172529,589F6A5B,6
4b/75b468c264.pal,184588,6465431B,6
4b/8abcba8bd9.pal,193875,B561EFA6,6
4b/ecc19d1cbf.pal,12822,F1F6A0CA,6
4b/f641a3647f.pal,108734,232FE916,6
62/2bafed3f76.pal,144563,9799303A,6
62/805466f7ad.pal,186777,33281C7D,6
62/8144b90c58.pal,167161,5C40ACA6,6
62/976fe56c16.pal,84613,CBC88618,6
62/a8a1c84981.pal,86060,A4952B64,6
62/bfc6610476.pal,175247,84CD9D9A,6
62/d8e586654a.pal,147643,783D20CC,6
64/283de45705.pal,94913,FCE02A79,6
64/38a28a2745.pal,192327,CBF1B76E,6
64/52767f1639.pal,214037,51C1D675,6
64/62c3828250.pal,172985,ED1F2FB8,6
64/932623b2ac.pal,84954,FAA3ADF1,6
64/cd66119377.pal,200195,1AEA6EDD,6
64/e02edac13b.pal,165106,A74B7689,6
67/6d6de43fa0.pal,172441,879182FF,6
67/6fa38f2a1a.pal,110835,C4B0A647,6
67/84c7c712ee.pal,147598,C7553D8C,6
67/98091a9469.pal,183808,611C1CC8,6
67/b67c0cfe3d.pal,173286,849B0C30,6
67/ca33797d18.pal,13725,B526B379,6
67/d8edc01f33.pal,178677,D79D67E4,6
a3/07532ef263.pal,162297,299D8F51,6
a3/160260dd5a.pal,184237,F0448B2C,6
a3/2e24f76a80.pal,139047,FFCE17E1,6
a3/34afa4717f.pal,182950,31AC3E7A,6
a3/4fe4775888.pal,150743,D7F69597,6
a3/532d6006d2.pal,83518,18019C17,6
a3/57fb417929.pal,194630,236D4768,6
a3/828b537445.pal,174878,D3D33C5D,6
a3/8f8218a71d.pal,128987,C2270C7E,6
a3/bbfbf61a95.pal,141172,C75E5143,6
a3/c63ccdd90d.pal,107768,5F7C2262,6
a3/d1f7d6c61b.pal,165692,411DF219,6
a3/fa581604a5.pal,175574,FAF71EE9,6
ad/011f7d8f8c.pal,109376,07D258B9,6
ad/219c124c8e.pal,210646,6963C433,6
ad/2c75590687.pal,192947,35133A89,6
ad/390a1c1188.pal,81939,7339E3AA,6
ad/409decc92c.pal,173040,8D5F314B,6
ad/44b5f4e820.pal,205285,21C75702,6
ad/48e48bd522.pal,13792,AEA913FF,6
ad/5b3daac179.pal,162255,C9E8E6F7,6
ad/659ebc1e47.pal,82324,500B1A34,6
ad/8af962f5e5.pal,170392,0A9E2CB0,6
ad/a697cab511.pal,119294,D538A68D,6
ad/bc0a50272a.pal,155828,2F843582,6
ad/cdd423cc0a.pal,138886,06078134,6
ad/d72d934f2d.pal,83349,C9981AE4,6
ad/e0f25fe86a.pal,194423,004E3351,6
ad/ea4aa1b043.pal,182097,68E0AC4B,6
ad/ecf295ceb5.pal,113282,0C4216A3,6
ad/fb0c9b3a29.pal,176848,A7C89461,6
cc/2939db7a7b.pal,134822,FBEB298D,6
cc/4763930f3a.pal,67471,D31DB4D7,6
cc/4b2b9906c9.pal,115507,CDB869A8,6
cc/cb26a74d33.pal,203513,F12EECD1,6
cc/dd30bf5014.pal,181855,257EC6AE,6
cc/deff923a7b.pal,133676,8AB47277,6
d2/3243dfe745.pal,195960,34424945,6
d2/45849d5e5f.pal,206029,F698B853,6
d2/59cf806b55.pal,195350,3F2DECF4,6
d2/9537404c48.pal,12974,293D96B6,6
d2/96255047bf.pal,178690,C88659B5,6
d2/f23137e7a3.pal,105753,F966149D,6
e0/27b28b2a71.pal,107770,243C34BF,6
e0/2c3884bc7e.pal,178935,39A4F30E,6
e0/38d168efa9.pal,87741,0A478F63,6
e0/52dc8d2602.pal,183778,A9D4E0DF,6
e0/6bed99708e.pal,112180,BBCB1C2A,6
e0/8d1ef4f739.pal,14014,D602E12B,6
e0/a5b80d3e09.pal,13033,37D0238A,6
e0/dc7d1aef16.pal,190859,464775E2,6
e0/f4f57cc82e.pal,186980,CEBB4937,6
e0/f70a2d04ff.pal,196048,B957B521,6
ed/39b5c27945.pal,110976,1DEBAD75,6
ed/3ff21a0e45.pal,195511,918C5535,6
ed/40e261d2f2.pal,183424,265FE338,6
ed/6c44b939d6.pal,102690,F8D40B36,6
ed/c3b4a1fa39.pal,183847,7CB2423E,6
ed/e2d0ef39f2.pal,139921,7A68A7B5,6
ed/fdb89bc73b.pal,163749,534DDFFA,6
